<?xml version="1.0" encoding="UTF-8"?>
<scenario compass-tutorial="false" map-key-tutorial="false" distance-tutorial="false"><name>Bristol</name><activities xmlns:xsi="http://www.w3.org/2001/XMLSchema-instance" compass-button="false" update-button-visibility="false" instructions-button="false" distance-button="false" map-key-button="false" id="0" skip-button="false" scrap-book-button="false" help-button="false" loop-steps="false" xsi:type="java:uk.co.namshub.Activity"><scenario-name>bristolIM</scenario-name><steps id="0" activity-id="0" time-out="-1" xsi:type="java:uk.co.namshub.Step"><info-text>Ring Ring! Can you hear the telephone?</info-text><info-on-completion>false</info-on-completion><step-speech>taskStep:bristols1</step-speech><distance>false</distance><type>click</type><scenario-name>Bristol</scenario-name><distance-units></distance-units><symbol-name-required>InformationCentre</symbol-name-required><trail-id>A</trail-id><centre><lat>51.45063913107245</lat><lon>-2.5946546951943033</lon></centre><trail-name>Trail 1</trail-name><symbol>true</symbol><distance-required></distance-required><direction-units></direction-units><direction>false</direction><direction-required></direction-required><must-answer-to-progress>true</must-answer-to-progress><target><lat>51.45032488382484</lat><lon>-2.5946546951943033</lon></target><name>Start by tapping the information centre symbol in Queen Square near the centre of the map.</name></steps><steps id="1" activity-id="0" time-out="-1" xsi:type="java:uk.co.namshub.Step"><info-text></info-text><info-on-completion>false</info-on-completion><step-speech>taskStep:bristols2</step-speech><distance>true</distance><type>click</type><scenario-name>Bristol</scenario-name><distance-units>meters</distance-units><reference><lat>51.45033156995865</lat><lon>-2.5946546951943033</lon></reference><symbol-name-required>Telephone</symbol-name-required><trail-id>A</trail-id><centre><lat>51.45033156995865</lat><lon>-2.5946546951943033</lon></centre><trail-name>Trail 1</trail-name><symbol>true</symbol><distance-required>50</distance-required><direction-units>cardinal</direction-units><direction>true</direction><direction-required>north</direction-required><must-answer-to-progress>true</must-answer-to-progress><target><lat>51.450973434280606</lat><lon>-2.5945795933418636</lon></target><name>Can you tap on the telephone symbol 50 meters north of the information centre?</name></steps><steps id="2" activity-id="0" time-out="-1" xsi:type="java:uk.co.namshub.Step"><info-text></info-text><info-on-completion>false</info-on-completion><step-speech>taskStep:bristols3</step-speech><distance>true</distance><type>click</type><scenario-name>Bristol</scenario-name><distance-units>meters</distance-units><reference><lat>51.45098680635838</lat><lon>-2.5946010510140405</lon></reference><symbol-name-required>Museum</symbol-name-required><trail-id>A</trail-id><centre><lat>51.45098680635838</lat><lon>-2.5946010510140405</lon></centre><trail-name>Trail 1</trail-name><symbol>true</symbol><distance-required>100</distance-required><direction-units>cardinal</direction-units><direction>true</direction><direction-required>east</direction-required><must-answer-to-progress>true</must-answer-to-progress><target><lat>51.4509400040701</lat><lon>-2.5930882851296166</lon></target><name>Can you tap the museum symbol 100 meters east of the telephone?</name></steps><steps id="3" activity-id="0" time-out="-1" xsi:type="java:uk.co.namshub.Step"><info-text>Clue 1: The statue will look like Gromit. This character was created in Bristol. It should be placed somewhere North of the Information Square.</info-text><info-on-completion>true</info-on-completion><step-speech>taskStep:bristols4</step-speech><distance>true</distance><type>click</type><scenario-name>Bristol</scenario-name><distance-units>meters</distance-units><reference><lat>51.45094669011439</lat><lon>-2.5930775562935287</lon></reference><symbol-name-required>InformationPoint</symbol-name-required><trail-id>A</trail-id><centre><lat>51.45094669011439</lat><lon>-2.5930775562935287</lon></centre><trail-name>Trail 1</trail-name><symbol>true</symbol><distance-required>300</distance-required><direction-units>cardinal</direction-units><direction>true</direction><direction-required>north</direction-required><must-answer-to-progress>true</must-answer-to-progress><target><lat>51.45346725897158</lat><lon>-2.5930775562935287</lon></target><name>Can you tap the information point symbol around 300 meters north of the museum?</name></steps><steps id="4" activity-id="0" time-out="-1" xsi:type="java:uk.co.namshub.Step"><info-text></info-text><info-on-completion>false</info-on-completion><step-speech>taskStep:bristols5</step-speech><distance>true</distance><type>click</type><scenario-name>Bristol</scenario-name><distance-units>meters</distance-units><reference><lat>51.45346725897158</lat><lon>-2.59306682745753</lon></reference><symbol-name-required>NatureReserve</symbol-name-required><trail-id>B</trail-id><centre><lat>51.45346725897158</lat><lon>-2.59306682745753</lon></centre><trail-name>Trail 2</trail-name><symbol>true</symbol><distance-required>100</distance-required><direction-units>intercardinal</direction-units><direction>true</direction><direction-required>north east</direction-required><must-answer-to-progress>true</must-answer-to-progress><target><lat>51.45402885217271</lat><lon>-2.591564790409195</lon></target><name>Can you tap the nature reserve symbol 100 meters north east of the information point?</name></steps><steps id="5" activity-id="0" time-out="-1" xsi:type="java:uk.co.namshub.Step"><info-text></info-text><info-on-completion>false</info-on-completion><step-speech>taskStep:bristols6</step-speech><distance>true</distance><type>click</type><scenario-name>Bristol</scenario-name><distance-units>meters</distance-units><reference><lat>51.45401548098592</lat><lon>-2.5915755192451937</lon></reference><symbol-name-required>Castle</symbol-name-required><trail-id>B</trail-id><centre><lat>51.45401548098592</lat><lon>-2.5915755192451937</lon></centre><trail-name>Trail 2</trail-name><symbol>true</symbol><distance-required>300</distance-required><direction-units>intercardinal</direction-units><direction>true</direction><direction-required>south east</direction-required><must-answer-to-progress>true</must-answer-to-progress><target><lat>51.452858858540516</lat><lon>-2.589032785099068</lon></target><name>Can you tap the castle symbol 300 meters south east of the nature reserve?</name></steps><steps id="6" activity-id="0" time-out="-1" xsi:type="java:uk.co.namshub.Step"><info-text></info-text><info-on-completion>false</info-on-completion><step-speech>taskStep:bristols7</step-speech><distance>true</distance><type>click</type><scenario-name>Bristol</scenario-name><distance-units>meters</distance-units><reference><lat>51.452885601586615</lat><lon>-2.5890220562630697</lon></reference><symbol-name-required>EnglishHeritage</symbol-name-required><trail-id>B</trail-id><centre><lat>51.452885601586615</lat><lon>-2.5890220562630697</lon></centre><trail-name>Trail 2</trail-name><symbol>true</symbol><distance-required>150</distance-required><direction-units>intercardinal</direction-units><direction>true</direction><direction-required>north east</direction-required><must-answer-to-progress>true</must-answer-to-progress><target><lat>51.453861712060956</lat><lon>-2.5873376290016803</lon></target><name>Can you tap the English heritage symbol 150 meters north east of the castle?</name></steps><steps id="7" activity-id="0" time-out="-1" xsi:type="java:uk.co.namshub.Step"><info-text>Clue 2: The statue should be placed somewhere between 100 meters and a quarter of a kilometer from the Information Square.</info-text><info-on-completion>true</info-on-completion><step-speech>taskStep:bristols8</step-speech><distance>true</distance><type>click</type><scenario-name>Bristol</scenario-name><distance-units>kilometers</distance-units><reference><lat>51.45384834082578</lat><lon>-2.5873376290016803</lon></reference><symbol-name-required>InformationPoint</symbol-name-required><trail-id>B</trail-id><centre><lat>51.45384834082578</lat><lon>-2.5873376290016803</lon></centre><trail-name>Trail 2</trail-name><symbol>true</symbol><distance-required>.5</distance-required><direction-units>intercardinal</direction-units><direction>true</direction><direction-required>south east</direction-required><must-answer-to-progress>true</must-answer-to-progress><target><lat>51.45112052691695</lat><lon>-2.5815977017098324</lon></target><name>Can you tap the information point symbol half a kilometre south east of the English heritage site</name></steps><steps id="8" activity-id="0" time-out="-1" xsi:type="java:uk.co.namshub.Step"><info-text></info-text><info-on-completion>false</info-on-completion><step-speech>taskStep:bristols9</step-speech><distance>true</distance><type>click</type><scenario-name>Bristol</scenario-name><distance-units>meters</distance-units><reference><lat>51.45112052691695</lat><lon>-2.581586972873744</lon></reference><symbol-name-required>RailwayStation</symbol-name-required><trail-id>C</trail-id><centre><lat>51.45112052691695</lat><lon>-2.581586972873744</lon></centre><trail-name>Trail 3</trail-name><symbol>true</symbol><distance-required>100</distance-required><direction-units>cardinal</direction-units><direction>true</direction><direction-required>south</direction-required><must-answer-to-progress>true</must-answer-to-progress><target><lat>51.450057437654706</lat><lon>-2.5817800919227962</lon></target><name>Can you tap the railway station symbol 100 meters south of the information point</name></steps><steps id="9" activity-id="0" time-out="-1" xsi:type="java:uk.co.namshub.Step"><info-text></info-text><info-on-completion>false</info-on-completion><step-speech>taskStep:bristols10</step-speech><distance>true</distance><type>click</type><scenario-name>Bristol</scenario-name><distance-units>meters</distance-units><reference><lat>51.4500774961718</lat><lon>-2.58182300726697</lon></reference><symbol-name-required>BusStation</symbol-name-required><trail-id>C</trail-id><centre><lat>51.4500774961718</lat><lon>-2.58182300726697</lon></centre><trail-name>Trail 3</trail-name><symbol>true</symbol><distance-required>100</distance-required><direction-units>secondary-intercardinal</direction-units><direction>true</direction><direction-required>west south west</direction-required><must-answer-to-progress>true</must-answer-to-progress><target><lat>51.44957603060089</lat><lon>-2.5841726223641337</lon></target><name>Can you tap the bus station 170m west south west of the railway station?</name></steps><steps id="10" activity-id="0" time-out="-1" xsi:type="java:uk.co.namshub.Step"><info-text></info-text><info-on-completion>false</info-on-completion><step-speech>taskStep:bristols11</step-speech><distance>true</distance><type>click</type><scenario-name>Bristol</scenario-name><distance-units>kilometre</distance-units><reference><lat>51.4495894030874</lat><lon>-2.584215537708218</lon></reference><symbol-name-required>Parking</symbol-name-required><trail-id>C</trail-id><centre><lat>51.4495894030874</lat><lon>-2.584215537708218</lon></centre><trail-name>Trail 3</trail-name><symbol>true</symbol><distance-required>.25</distance-required><direction-units>secondary-intercardinal</direction-units><direction>true</direction><direction-required>north west</direction-required><must-answer-to-progress>true</must-answer-to-progress><target><lat>51.45076616658016</lat><lon>-2.5872303406409762</lon></target><name>Can you tap the parking symbol a quarter of a kilometre north west of the bus station?</name></steps><steps id="11" activity-id="0" time-out="-1" xsi:type="java:uk.co.namshub.Step"><info-text></info-text><info-on-completion>false</info-on-completion><step-speech>taskStep:bristols12</step-speech><distance>true</distance><type>click</type><scenario-name>Bristol</scenario-name><distance-units>meters</distance-units><reference><lat>51.45078622478589</lat><lon>-2.5872196118048882</lon></reference><symbol-name-required>Garden</symbol-name-required><trail-id>C</trail-id><centre><lat>51.45078622478589</lat><lon>-2.5872196118048882</lon></centre><trail-name>Trail 3</trail-name><symbol>true</symbol><distance-required>200</distance-required><direction-units>secondary-intercardinal</direction-units><direction>true</direction><direction-required>south south east</direction-required><must-answer-to-progress>true</must-answer-to-progress><target><lat>51.44916816787482</lat><lon>-2.5856532017402016</lon></target><name>Can you tap the garden 200 meters south south east of the parking symbol?</name></steps><steps id="12" activity-id="0" time-out="-1" xsi:type="java:uk.co.namshub.Step"><info-text>Clue 3: The statue should be placed South of the Nature Reserve.</info-text><info-on-completion>true</info-on-completion><step-speech>taskStep:bristols13</step-speech><distance>true</distance><type>click</type><scenario-name>Bristol</scenario-name><distance-units>kilometres</distance-units><reference><lat>51.44916148157063</lat><lon>-2.5856317440681145</lon></reference><symbol-name-required>InformationCentre</symbol-name-required><trail-id>C</trail-id><centre><lat>51.44916148157063</lat><lon>-2.5856317440681145</lon></centre><trail-name>Trail 3</trail-name><symbol>true</symbol><distance-required>.65</distance-required><direction-units>secondary-intercardinal</direction-units><direction>true</direction><direction-required>west north west</direction-required><must-answer-to-progress>true</must-answer-to-progress><target><lat>51.450338256092024</lat><lon>-2.5946761528663003</lon></target><name>Can you tap the information centre 0.65 kilometres west north west of the garden?</name></steps><steps id="13" activity-id="0" time-out="-1" xsi:type="java:uk.co.namshub.Step"><info-text>Well done you have places the stature in the right place!</info-text><info-on-completion>true</info-on-completion><step-speech>taskStep:bristols14</step-speech><distance>true</distance><type>drag</type><scenario-name>Bristol</scenario-name><distance-units>meters</distance-units><reference><lat>51.45059232842831</lat><lon>-2.594643966358124</lon></reference><movable-map-objects pop-up="false" rank="0" image-height="60" image-width="60" polygon="false" xsi:type="java:uk.co.namshub.MapObject"><name>gromit</name><image>gromit.png</image><lon-lat><lat>51.45059232842831</lat><lon>-2.594654695194213</lon></lon-lat></movable-map-objects><symbol-name-required>gromit</symbol-name-required><trail-id>D</trail-id><centre><lat>51.45059232842831</lat><lon>-2.594643966358124</lon></centre><trail-name>Placement</trail-name><symbol>true</symbol><distance-required>100</distance-required><direction-units>cardinal</direction-units><direction>true</direction><direction-required>north</direction-required><must-answer-to-progress>true</must-answer-to-progress><target><lat>51.45143476868877</lat><lon>-2.594643966358124</lon></target><name>Open the scrap book to see where to drag the statue</name></steps><steps id="14" activity-id="0" time-out="-1" xsi:type="java:uk.co.namshub.Step"><info-text></info-text><info-on-completion>false</info-on-completion><step-speech>taskStep:bristols15</step-speech><distance>false</distance><type>click</type><scenario-name>Bristol</scenario-name><distance-units></distance-units><symbol-name-required></symbol-name-required><trail-id>Z</trail-id><centre><lat>51.45059232842831</lat><lon>-2.594643966358124</lon></centre><trail-name>Debrief</trail-name><symbol>false</symbol><distance-required></distance-required><direction-units></direction-units><direction>false</direction><direction-required></direction-required><must-answer-to-progress>true</must-answer-to-progress><name>Finished!</name></steps><map-objects pop-up="false" rank="0" image-height="30" image-width="30" polygon="false" xsi:type="java:uk.co.namshub.MapObject"><name>InformationCentre</name><image>InformationCentre.png</image><lon-lat><lat>51.450318197689505</lat><lon>-2.5946546951943033</lon></lon-lat></map-objects><map-objects pop-up="false" rank="0" image-height="30" image-width="30" polygon="false" xsi:type="java:uk.co.namshub.MapObject"><name>Telephone</name><image>Telephone.png</image><lon-lat><lat>51.45098012031996</lat><lon>-2.594622508686127</lon></lon-lat></map-objects><map-objects pop-up="false" rank="0" image-height="30" image-width="30" polygon="false" xsi:type="java:uk.co.namshub.MapObject"><name>Telephone</name><image>Telephone.png</image><lon-lat><lat>51.4496495792291</lat><lon>-2.5950516621284963</lon></lon-lat></map-objects><map-objects pop-up="false" rank="0" image-height="30" image-width="30" polygon="false" xsi:type="java:uk.co.namshub.MapObject"><name>Museum</name><image>Museum.png</image><lon-lat><lat>51.4509400040701</lat><lon>-2.5930882851296166</lon></lon-lat></map-objects><map-objects pop-up="false" rank="0" image-height="30" image-width="30" polygon="false" xsi:type="java:uk.co.namshub.MapObject"><name>Museum</name><image>Museum.png</image><lon-lat><lat>51.44989028300276</lat><lon>-2.5931848446541435</lon></lon-lat></map-objects><map-objects pop-up="false" rank="0" image-height="30" image-width="30" polygon="false" xsi:type="java:uk.co.namshub.MapObject"><name>Museum</name><image>Museum.png</image><lon-lat><lat>51.45105366668634</lat><lon>-2.5960601727181114</lon></lon-lat></map-objects><map-objects pop-up="false" rank="0" image-height="30" image-width="30" polygon="false" xsi:type="java:uk.co.namshub.MapObject"><name>Museum</name><image>Museum.png</image><lon-lat><lat>51.45009086851145</lat><lon>-2.5963391224556918</lon></lon-lat></map-objects><map-objects pop-up="false" rank="0" image-height="30" image-width="30" polygon="false" xsi:type="java:uk.co.namshub.MapObject"><name>InformationPoint</name><image>InformationPoint.png</image><lon-lat><lat>51.45346725897158</lat><lon>-2.5930775562935287</lon></lon-lat></map-objects><map-objects pop-up="false" rank="0" image-height="30" image-width="30" polygon="false" xsi:type="java:uk.co.namshub.MapObject"><name>NatureReserve</name><image>NatureReserve.png</image><lon-lat><lat>51.45399542419898</lat><lon>-2.5915647904091053</lon></lon-lat></map-objects><map-objects pop-up="false" rank="0" image-height="30" image-width="30" polygon="false" xsi:type="java:uk.co.namshub.MapObject"><name>Castle</name><image>Castle.png</image><lon-lat><lat>51.45287891582684</lat><lon>-2.589043513935157</lon></lon-lat></map-objects><map-objects pop-up="false" rank="0" image-height="30" image-width="30" polygon="false" xsi:type="java:uk.co.namshub.MapObject"><name>EnglishHeritage</name><image>EnglishHeritage.png</image><lon-lat><lat>51.45384834082578</lat><lon>-2.5873376290016803</lon></lon-lat></map-objects><map-objects pop-up="false" rank="0" image-height="30" image-width="30" polygon="false" xsi:type="java:uk.co.namshub.MapObject"><name>RailwayStation</name><image>RailwayStation.png</image><lon-lat><lat>51.450070810000234</lat><lon>-2.5818230072670603</lon></lon-lat></map-objects><map-objects pop-up="false" rank="0" image-height="30" image-width="30" polygon="false" xsi:type="java:uk.co.namshub.MapObject"><name>InformationPoint</name><image>InformationPoint.png</image><lon-lat><lat>51.451100468858115</lat><lon>-2.5815869728738337</lon></lon-lat></map-objects><map-objects pop-up="false" rank="0" image-height="30" image-width="30" polygon="false" xsi:type="java:uk.co.namshub.MapObject"><name>BusStation</name><image>BusStation.png</image><lon-lat><lat>51.449569344355886</lat><lon>-2.584215537708218</lon></lon-lat></map-objects><map-objects pop-up="false" rank="0" image-height="30" image-width="30" polygon="false" xsi:type="java:uk.co.namshub.MapObject"><name>BusStation</name><image>BusStation.png</image><lon-lat><lat>51.45121413107544</lat><lon>-2.5812007347755492</lon></lon-lat></map-objects><map-objects pop-up="false" rank="0" image-height="30" image-width="30" polygon="false" xsi:type="java:uk.co.namshub.MapObject"><name>BusStation</name><image>BusStation.png</image><lon-lat><lat>51.44805822790988</lat><lon>-2.5821770588569</lon></lon-lat></map-objects><map-objects pop-up="false" rank="0" image-height="30" image-width="30" polygon="false" xsi:type="java:uk.co.namshub.MapObject"><name>Parking</name><image>Parking.png</image><lon-lat><lat>51.451702206790145</lat><lon>-2.5849665562324304</lon></lon-lat></map-objects><map-objects pop-up="false" rank="0" image-height="30" image-width="30" polygon="false" xsi:type="java:uk.co.namshub.MapObject"><name>Parking</name><image>Parking.png</image><lon-lat><lat>51.450759480509454</lat><lon>-2.5872303406409762</lon></lon-lat></map-objects><map-objects pop-up="false" rank="0" image-height="30" image-width="30" polygon="false" xsi:type="java:uk.co.namshub.MapObject"><name>Parking</name><image>Parking.png</image><lon-lat><lat>51.44885391050217</lat><lon>-2.5825740257910934</lon></lon-lat></map-objects><map-objects pop-up="false" rank="0" image-height="30" image-width="30" polygon="false" xsi:type="java:uk.co.namshub.MapObject"><name>Parking</name><image>Parking.png</image><lon-lat><lat>51.450792910852144</lat><lon>-2.5810505310706713</lon></lon-lat></map-objects><map-objects pop-up="false" rank="0" image-height="30" image-width="30" polygon="false" xsi:type="java:uk.co.namshub.MapObject"><name>Garden</name><image>Garden.png</image><lon-lat><lat>51.449154795264946</lat><lon>-2.5856639305762905</lon></lon-lat></map-objects><map-objects pop-up="false" rank="0" image-height="30" image-width="30" polygon="false" xsi:type="java:uk.co.namshub.MapObject"><name>Garden</name><image>Garden.png</image><lon-lat><lat>51.45152837220295</lat><lon>-2.5857283035926413</lon></lon-lat></map-objects><map-objects pop-up="false" rank="0" image-height="30" image-width="30" polygon="false" xsi:type="java:uk.co.namshub.MapObject"><name>Garden</name><image>Garden.png</image><lon-lat><lat>51.44685464805978</lat><lon>-2.580396072071075</lon></lon-lat></map-objects><map-objects pop-up="false" rank="0" image-height="30" image-width="30" polygon="false" xsi:type="java:uk.co.namshub.MapObject"><name>Garden</name><image>Garden.png</image><lon-lat><lat>51.44988359680432</lat><lon>-2.585073844593045</lon></lon-lat></map-objects><map-objects pop-up="false" rank="0" image-height="30" image-width="30" polygon="false" xsi:type="java:uk.co.namshub.MapObject"><name>Garden</name><image>Garden.png</image><lon-lat><lat>51.4491079910992</lat><lon>-2.5882817665748554</lon></lon-lat></map-objects><map-objects pop-up="false" rank="0" image-height="30" image-width="30" polygon="false" xsi:type="java:uk.co.namshub.MapObject"><name>Garden</name><image>Garden.png</image><lon-lat><lat>51.45490465635304</lat><lon>-2.5909210602455075</lon></lon-lat></map-objects><map-objects pop-up="false" rank="0" image-height="30" image-width="30" polygon="false" xsi:type="java:uk.co.namshub.MapObject"><name>Garden</name><image>Garden.png</image><lon-lat><lat>51.44673428832926</lat><lon>-2.5869943062476604</lon></lon-lat></map-objects><map-objects pop-up="false" rank="0" image-height="30" image-width="30" polygon="false" xsi:type="java:uk.co.namshub.MapObject"><name>Parking</name><image>Parking.png</image><lon-lat><lat>51.4500841823424</lat><lon>-2.590609923999752</lon></lon-lat></map-objects><map-objects pop-up="false" rank="0" image-height="30" image-width="30" polygon="false" xsi:type="java:uk.co.namshub.MapObject"><name>Parking</name><image>Parking.png</image><lon-lat><lat>51.45063913107301</lat><lon>-2.5970043102912865</lon></lon-lat></map-objects><map-objects pop-up="false" rank="0" image-height="30" image-width="30" polygon="false" xsi:type="java:uk.co.namshub.MapObject"><name>Parking</name><image>Parking.png</image><lon-lat><lat>51.44897426464555</lat><lon>-2.591521875064841</lon></lon-lat></map-objects></activities></scenario>